loggingTime,loggingSample,locationTimestamp_since1970,locationLatitude,locationLongitude,locationAltitude,locationSpeed,locationSpeedAccuracy,locationCourse,locationCourseAccuracy,locationVerticalAccuracy,locationHorizontalAccuracy,locationFloor,locationHeadingTimestamp_since1970,locationHeadingX,locationHeadingY,locationHeadingZ,locationTrueHeading,locationMagneticHeading,locationHeadingAccuracy,accelerometerTimestamp_sinceReboot,accelerometerAccelerationX,accelerometerAccelerationY,accelerometerAccelerationZ,gyroTimestamp_sinceReboot,gyroRotationX,gyroRotationY,gyroRotationZ,magnetometerTimestamp_sinceReboot,magnetometerX,magnetometerY,magnetometerZ,motionTimestamp_sinceReboot,motionYaw,motionRoll,motionPitch,motionRotationRateX,motionRotationRateY,motionRotationRateZ,motionUserAccelerationX,motionUserAccelerationY,motionUserAccelerationZ,motionAttitudeReferenceFrame,motionQuaternionX,motionQuaternionY,motionQuaternionZ,motionQuaternionW,motionGravityX,motionGravityY,motionGravityZ,motionMagneticFieldX,motionMagneticFieldY,motionMagneticFieldZ,motionHeading,motionMagneticFieldCalibrationAccuracy,activityTimestamp_sinceReboot,activity,activityActivityConfidence,activityActivityStartDate,pedometerStartDate,pedometerNumberofSteps,pedometerAverageActivePace,pedometerCurrentPace,pedometerCurrentCadence,pedometerDistance,pedometerFloorAscended,pedometerFloorDescended,pedometerEndDate,altimeterTimestamp_sinceReboot,altimeterReset,altimeterRelativeAltitude,altimeterPressure,IP_Timestamp_since1970,IP_en0,IP_pdp_ip0,deviceID,deviceOrientationTimeStamp_since1970,deviceOrientation,batteryTimeStamp_since1970,batteryState,batteryLevel,label
1659876532.03986,1,1659876531.645408,28.61998128265263,77.37100343686852,207.9473,-1,-1,-1,-1,16.86159324645996,35,-9999,1659876532.034606,-27.58305358886719,-22.38803863525391,-25.67723846435547,229.4090576171875,228.1701812744141,12.7323169708252,41822.444552125,-0.9869537353515625,-0.0128021240234375,-0.165863037109375,41822.420634125,-0.01190459635108709,-0.04575284197926521,0.0008415589109063148,41822.434408125,-52.89239501953125,-43.52247619628906,-20.97883605957031,41822.385381125,0.01389901472194688,-1.4221608026295,0.01277092086237442,-0.006311439909040928,0.03416964411735535,-1.535704359412193e-05,0.0002154111862182617,0.003081260249018669,-0.008630946278572083,2,0.009373325665949922,-0.6525900335968315,0.001097835767806365,0.7576524909092095,-0.9888935089111328,-0.01277057360857725,-0.1480767726898193,-27.4881477355957,-22.35150527954102,-25.52696228027344,-1,2,41822.365745125,2,0,1659876532.114862,0,0,0,0,0,0,0,0,0,41820.138542,0,-0.05285645,97.29809,1659876531.993468,3232235861,172480399,0,0,1,1659876531.970341,1,0.11,0
1659876532.140644,2,1659876531.645408,28.61998128265263,77.37100343686852,207.9473,-1,-1,-1,-1,16.86159324645996,35,-9999,1659876532.135754,-27.76016998291016,-22.15318298339844,-25.98784255981445,229.4084320068359,228.1695556640625,12.73228549957275,41822.544016125,-0.98907470703125,-0.0113372802734375,-0.1403656005859375,41822.520094125,-0.00669412175193429,-0.06277709454298019,0.005231780000030994,41822.534481125,-53.12028503417969,-43.31108093261719,-21.28665161132812,41822.486103125,0.0138291826423802,-1.427905632967672,0.01287641807095586,0.00203293189406395,-0.08225267380475998,0.001901068259030581,0.002391219139099121,0.001569300889968872,-0.008424639701843262,2,0.009393441994438506,-0.6547634635807147,0.001009976877382357,0.755774836109301,-0.9897264838218689,-0.0128760626539588,-0.1423931419849396,-27.67881774902344,-22.37068557739258,-25.88357543945312,-1,2,41822.365745125,2,0,1659876532.114862,0,0,0,0,0,0,0,0,0,41820.138542,0,-0.05285645,97.29809,1659876531.993468,3232235861,172480399,0,0,1,1659876531.970341,1,0.11,0
1659876532.241055,3,1659876531.645408,28.61998128265263,77.37100343686852,207.9473,-1,-1,-1,-1,16.86159324645996,35,-9999,1659876532.236064,-27.94848251342773,-22.31354141235352,-25.33110046386719,229.4152221679688,228.1763458251953,12.73225688934326,41822.643480125,-0.9886016845703125,-0.0104827880859375,-0.1805419921875,41822.619558125,-0.01649215817451477,-0.1047692894935608,0.004808071069419384,41822.634567125,-53.30654907226562,-43.48272705078125,-20.58860778808594,41822.586825125,0.01380602136704187,-1.433084726004078,0.01283058354214408,-0.001486784778535366,-0.02100519649684429,0.0007642928976565599,0.0003694295883178711,0.001950711943209171,-0.001955673098564148,2,0.009371140736911532,-0.6567187059386623,0.000991967706842567,0.7540767662461065,-0.9904512166976929,-0.0128302313387394,-0.1372654438018799,-27.87341690063477,-22.38544464111328,-25.4877815246582,-1,2,41822.365745125,2,0,1659876532.114862,0,0,0,0,0,0,0,0,0,41820.138542,0,-0.05285645,97.29809,1659876531.993468,3232235861,172480399,0,0,1,1659876531.970341,1,0.11,0
1659876532.34211,4,1659876531.645408,28.61998128265263,77.37100343686852,207.9473,-1,-1,-1,-1,16.86159324645996,35,-9999,1659876532.336871,-28.9860725402832,-22.30779266357422,-23.92944717407227,229.4668273925781,228.2279510498047,12.73228168487549,41822.742945125,-0.9943389892578125,-0.0123443603515625,-0.102569580078125,41822.71902212501,-0.01139699760824442,-0.5211132168769836,-0.001914280233904719,41822.73464512501,-54.33961486816406,-43.44065856933594,-19.08613586425781,41822.687547125,0.01363746195793956,-1.457438640680904,0.01273378299083384,0.005806227214634418,-0.5164726972579956,-0.01008128933608532,0.002977073192596436,0.007575960829854012,-0.04265574365854263,2,0.009290302437094139,-0.6658533954431106,0.0008471405637248963,0.7460242441072548,-0.9935013055801392,-0.01273343898355961,-0.1131058931350708,-28.31777572631836,-22.31327438354492,-24.89418411254883,-1,2,41822.687906125,1,2,1659876532.437023,0,0,0,0,0,0,0,0,0,41820.138542,0,-0.05285645,97.29809,1659876531.993468,3232235861,172480399,0,0,1,1659876531.970341,1,0.11,0
1659876532.441279,5,1659876531.645408,28.61998128265263,77.37100343686852,207.9473,-1,-1,-1,-1,16.86159324645996,35,-9999,1659876532.437559,-29.57823944091797,-22.17057037353516,-23.03375244140625,229.4837951660156,228.2449188232422,12.7324104309082,41822.84240925,-0.9970855712890625,-0.0103302001953125,-0.067596435546875,41822.81849025,-0.01489106472581625,0.03525971993803978,0.005093561951071024,41822.83472425,-54.900146484375,-43.31979370117188,-18.3443603515625,41822.78827012501,0.01369709760773727,-1.507100378182493,0.01301267112665698,-0.001973883248865604,-0.2188837826251984,0.001963421236723661,-0.001807212829589844,0.002621056511998177,0.07280278950929642,2,0.0094305549172638,-0.6841690707790621,0.0005425495045811857,0.7292622328601034,-0.9978875517845154,-0.01301230397075415,-0.06364749372005463,-29.794921875,-22.09212112426758,-23.06319808959961,-1,2,41822.687906125,1,2,1659876532.437023,0,0,0,0,0,0,0,0,0,41820.138542,0,-0.05285645,97.29809,1659876531.993468,3232235861,172480399,0,0,1,1659876531.970341,1,0.11,0
1659876532.538113,6,1659876531.645408,28.61998128265263,77.37100343686852,207.9473,-1,-1,-1,-1,16.86159324645996,35,-9999,1659876532.51833,-29.75651550292969,-22.23363876342773,-23.1384162902832,229.4795532226562,228.2406768798828,12.73250198364258,41822.94187325001,-0.999969482421875,-0.0106964111328125,-0.0581207275390625,41822.91795025,-0.01125079020857811,-0.1227205917239189,0.003091131104156375,41822.93479425,-55.38531494140625,-43.38616943359375,-17.95822143554688,41822.88899625,0.01352855583427551,-1.508276893698001,0.01289323141541858,0.00073216762393713,-0.08974979072809219,0.0003007282502949238,0.0009387731552124023,0.002165941521525383,-0.03907365351915359,2,0.009329655934669168,-0.6845992938288352,0.0005164690093121815,0.7288598279039206,-0.9979634881019592,-0.01289287395775318,-0.06247352808713913,-29.69237899780273,-22.15923690795898,-23.25809097290039,-1,2,41822.687906125,1,2,1659876532.437023,0,0,0,0,0,0,0,0,0,41820.138542,0,-0.05285645,97.29809,1659876531.993468,3232235861,172480399,0,0,1,1659876531.970341,1,0.11,0
1659876532.64054,7,1659876531.645408,28.61998128265263,77.37100343686852,207.9473,-1,-1,-1,-1,16.86159324645996,35,-9999,1659876532.639252,-29.82796478271484,-22.45504379272461,-22.84162902832031,229.4632263183594,228.2243499755859,12.73254299163818,41823.04133725,-0.998870849609375,-0.010101318359375,-0.0532073974609375,41823.01741425,-0.01051282789558172,0.1404423266649246,0.007740477565675974,41823.03487125001,-55.18827819824219,-43.62495422363281,-18.07328796386719,41822.98971825,0.01373469858161115,-1.516607995677582,0.01284987542937925,0.000338253565132618,0.02831368334591389,0.002164735458791256,-0.0004821419715881348,0.000642506405711174,0.008808247745037079,2,0.009386864178350135,-0.687628686460462,0.0005673393520212178,0.7260017388703807,-0.9984499216079712,-0.01284952182322741,-0.05415735393762589,-29.88037490844727,-22.33621978759766,-22.79961395263672,-1,2,41822.687906125,1,2,1659876532.437023,0,0,0,0,0,0,0,0,0,41820.138542,0,-0.05285645,97.29809,1659876531.993468,3232235861,172480399,0,0,1,1659876531.970341,1,0.11,0
1659876532.739805,8,1659876531.645408,28.61998128265263,77.37100343686852,207.9473,-1,-1,-1,-1,16.86159324645996,35,-9999,1659876532.719481,-29.57089233398438,-22.27152633666992,-23.60020065307617,229.4290161132812,228.1901397705078,12.73252773284912,41823.14080125,-0.9983978271484375,-0.0089111328125,-0.0503997802734375,41823.11687825,0.00857431348413229,0.1097715049982071,0.004881307948380709,41823.13495125,-54.87173461914062,-43.43765258789062,-18.57173156738281,41823.09044025,0.01380531059002493,-1.50187906390153,0.01270388987003392,0.004252132494002581,0.1561626642942429,-0.001854796311818063,-0.0001807808876037598,0.002770067192614079,-0.01738541573286057,2,0.009353163497685391,-0.6822638309356034,0.0007120673215305906,0.7310459034826666,-0.9975456595420837,-0.01270354818552732,-0.06885716319084167,-29.59823989868164,-22.45301818847656,-23.3610725402832,-1,2,41822.687906125,1,2,1659876532.437023,0,0,0,0,0,0,0,0,0,41820.138542,0,-0.05285645,97.29809,1659876531.993468,3232235861,172480399,0,0,1,1659876531.970341,1,0.11,0
1659876532.83679,9,1659876531.645408,28.61998128265263,77.37100343686852,207.9473,-1,-1,-1,-1,16.86159324645996,35,-9999,1659876532.82023,-29.02999877929688,-22.44949340820312,-24.13730239868164,229.3947296142578,228.1558532714844,12.73253059387207,41823.24026125,-0.9936981201171875,-0.0113525390625,-0.127349853515625,41823.21634325,-0.01212404109537601,0.2341461926698685,0.001672997837886214,41823.23502825,-53.98483276367188,-43.70974731445312,-19.36463928222656,41823.19116225,0.01519142561822912,-1.483589883927161,0.0133081024538991,0.01068584620952606,0.3096460402011871,-0.01038593146950006,-0.0009281039237976074,0.002260357141494751,0.02481716871261597,2,0.01003716258186216,-0.6755406236033243,0.001104419081263575,0.7372536522746765,-0.9961117506027222,-0.01330770924687386,-0.08708824217319489,-29.13849258422852,-22.38482284545898,-23.62179183959961,-1,2,41822.687906125,1,2,1659876532.437023,0,0,0,0,0,0,0,0,0,41820.138542,0,-0.05285645,97.29809,1659876531.993468,3232235861,172480399,0,0,1,1659876531.970341,1,0.11,0
1659876532.936291,10,1659876531.645408,28.61998128265263,77.37100343686852,207.9473,-1,-1,-1,-1,16.86159324645996,35,-9999,1659876532.920998,-28.88601684570312,-22.37163925170898,-24.084716796875,229.4078979492188,228.1690216064453,12.73261260986328,41823.33972525,-0.9967803955078125,-0.0107574462890625,-0.0916748046875,41823.31580325,-0.01704955659806728,-0.1425587385892868,0.01160925161093473,41823.33510825,-54.25325012207031,-43.42015075683594,-18.86354064941406,41823.29188425,0.01467250412220637,-1.473166147061013,0.01333730456571089,-0.004201816394925117,-0.1127854138612747,0.009529504925012589,0.0004137158393859863,0.002136946655809879,-0.03331654518842697,2,0.009867808223658958,-0.6716914341570819,0.0009547081854383854,0.7407646887533533,-0.9951494336128235,-0.01333690900355577,-0.09746648371219635,-28.83639907836914,-22.43535614013672,-24.17520523071289,-1,2,41822.687906125,1,2,1659876532.437023,0,0,0,0,0,0,0,0,0,41820.68783,0,-0.07662964,97.29839,1659876531.993468,3232235861,172480399,0,0,1,1659876531.970341,1,0.11,0
1659876533.040388,11,1659876531.645408,28.61998128265263,77.37100343686852,207.9473,-1,-1,-1,-1,16.86159324645996,35,-9999,1659876533.021981,-28.86962127685547,-22.28376007080078,-24.18835067749023,229.3870391845703,228.1481628417969,12.73266315460205,41823.43918925001,-0.9943084716796875,-0.0195465087890625,-0.1063690185546875,41823.41526725001,-0.02442464977502823,0.09759766608476639,0.005833121482282877,41823.43518325,-54.17959594726562,-43.62742614746094,-19.30439758300781,41823.39260625,0.01454966459951415,-1.48088357672005,0.01267778741715296,-0.004777495749294758,0.01384110003709793,0.001339551759883761,-0.002029001712799072,-0.0008876007050275803,0.001832850277423859,2,0.009586592371632313,-0.6745486489497318,0.001093746725631672,0.7381673286189914,-0.9958805441856384,-0.01267744787037373,-0.08978443592786789,-29.10523986816406,-22.37118911743164,-24.00801086425781,-1,2,41822.687906125,1,2,1659876532.437023,0,0,0,0,0,0,0,0,0,41820.68783,0,-0.07662964,97.29839,1659876531.993468,3232235861,172480399,0,0,1,1659876531.970341,1,0.11,0
1659876533.137402,12,1659876531.645408,28.61998128265263,77.37100343686852,207.9473,-1,-1,-1,-1,16.86159324645996,35,-9999,1659876533.122452,-28.31344985961914,-22.48296737670898,-24.5801887512207,229.5720520019531,228.3331756591797,12.73271369934082,41823.53865325001,-0.9963531494140625,-0.021331787109375,-0.109466552734375,41823.51473125,-0.06460083276033401,-0.0299331322312355,0.001976598054170609,41823.53526525,-53.65939331054688,-43.5399169921875,-18.88417053222656,41823.49332825001,0.01215368118355444,-1.473156715462306,0.01199427609533617,-0.04679078608751297,0.01475080382078886,0.00153374345973134,0.0005060434341430664,-0.02299442887306213,-0.03208476305007935,2,0.008524462214659689,-0.6717057124099901,0.0004729192949295136,0.7407689409096471,-0.9951655268669128,-0.01199398841708899,-0.09747754037380219,-28.63766098022461,-22.43120574951172,-24.47005081176758,-1,2,41822.687906125,1,2,1659876532.437023,0,0,0,0,0,0,0,0,0,41820.68783,0,-0.07662964,97.29839,1659876531.993468,3232235861,172480399,0,0,1,1659876531.970341,1,0.11,0
1659876533.240499,13,1659876531.645408,28.61998128265263,77.37100343686852,207.9473,-1,-1,-1,-1,16.86159324645996,35,-9999,1659876533.223219,-27.84022521972656,-22.3681526184082,-24.16633224487305,229.9004821777344,228.6616058349609,12.7327184677124,41823.63811325,-0.9972686767578125,-0.0185546875,-0.1077880859375,41823.61419525,-0.048462875187397,-0.04451340436935425,-0.00287461606785655,41823.63534625,-52.93574523925781,-43.59429931640625,-19.46223449707031,41823.59405025,0.006384437573190761,-1.479418091989802,0.01185524975963654,-0.0557558685541153,-0.07615157216787338,-0.006664678920060396,0.0005339384078979492,-0.008515506982803345,-0.001879632472991943,2,0.006530226411740447,-0.6740437677739122,-0.001637674174544579,0.7386607529456031,-0.9957579374313354,-0.01185497175902128,-0.09124471247196198,-28.09865951538086,-22.53847122192383,-24.16640090942383,-1,2,41822.687906125,1,2,1659876532.437023,0,0,0,0,0,0,0,0,0,41820.68783,0,-0.07662964,97.29839,1659876531.993468,3232235861,172480399,0,0,1,1659876531.970341,1,0.11,0
1659876533.333865,14,1659876531.645408,28.61998128265263,77.37100343686852,207.9473,-1,-1,-1,-1,16.86159324645996,35,-9999,1659876533.323817,-27.1474609375,-22.68095016479492,-24.13914108276367,229.9773101806641,228.7384338378906,12.73269748687744,41823.73757725,-0.9954986572265625,-0.0168304443359375,-0.0843353271484375,41823.71365525,-0.01032507512718439,-0.01403752155601978,0.00737296137958765,41823.73542525,-52.38432312011719,-43.71141052246094,-18.64982604980469,41823.69477325,0.003641175885024999,-1.483598781998736,0.01181230889569706,-0.01346815284341574,-0.003030456136912107,0.004950906150043011,0.0001289844512939453,0.0005968222394585609,0.006377346813678741,2,0.005584299335208209,-0.6755947830541504,-0.002648048754708893,0.7372472228775634,-0.9961311817169189,-0.01181203406304121,-0.08708100765943527,-27.44708251953125,-22.44622421264648,-23.94296264648438,-1,2,41822.687906125,1,2,1659876532.437023,0,0,0,0,0,0,0,0,0,41820.68783,0,-0.07662964,97.29839,1659876531.993468,3232235861,172480399,0,0,1,1659876531.970341,1,0.11,0
1659876533.44196,15,1659876531.645408,28.61998128265263,77.37100343686852,207.9473,-1,-1,-1,-1,16.86159324645996,35,-9999,1659876533.424899,-26.2938117980957,-22.36125564575195,-23.58864974975586,230.1675109863281,228.9286346435547,12.73268032073975,41823.83703625,-0.992767333984375,-0.01153564453125,-0.100341796875,41823.81311425001,-0.08012359589338303,-0.003068494144827127,0.005331914871931076,41823.83549725,-51.57633972167969,-43.33186340332031,-18.63406372070312,41823.79549525,0.001648331434763939,-1.485174392708239,0.01141931052800979,-0.04003085941076279,-0.01588435098528862,0.0020799629855901,-0.0004628896713256836,-0.01226258277893066,0.0002762675285339355,2,0.004763690511098845,-0.676181497115576,-0.003253654241640841,0.7367125068191884,-0.9962717294692993,-0.01141906250268221,-0.08551178127527237,-26.58168792724609,-22.5072135925293,-23.6884880065918,-1,2,41822.687906125,1,2,1659876532.437023,0,0,0,0,0,0,0,0,0,41820.68783,0,-0.07662964,97.29839,1659876531.993468,3232235861,172480399,0,0,1,1659876531.970341,1,0.11,0
1659876533.535284,16,1659876531.645408,28.61998128265263,77.37100343686852,207.9473,-1,-1,-1,-1,16.86159324645996,35,-9999,1659876533.525224,-25.55738830566406,-21.68582916259766,-23.20479202270508,230.6219635009766,229.3830871582031,12.73266506195068,41823.93650125001,-0.995269775390625,-0.0179595947265625,-0.1068267822265625,41823.91257825001,-0.09494355320930481,-0.1659721881151199,0.001040230737999082,41823.93557025,-50.86968994140625,-42.89857482910156,-17.98844909667969,41823.89621225,-0.005868218331625919,-1.492700949526885,0.01106183597005282,-0.08184990286827087,-0.1462734639644623,-0.002168896608054638,0.0005532503128051758,-0.002747594378888607,-0.002402476966381073,2,0.002068484151556249,-0.6789625154059376,-0.005909361986837891,0.7341462625211457,-0.9968911409378052,-0.01106161065399647,-0.07801124453544617,-25.67338943481445,-22.05183029174805,-23.40719985961914,-1,2,41822.687906125,1,2,1659876532.437023,0,0,0,0,0,0,0,0,0,41820.68783,0,-0.07662964,97.29839,1659876531.993468,3232235861,172480399,0,0,1,1659876531.970341,1,0.11,0
1659876533.632133,17,1659876531.645408,28.61998128265263,77.37100343686852,207.9473,-1,-1,-1,-1,16.86159324645996,35,-9999,1659876533.626255,-24.9696044921875,-21.20314025878906,-22.37692642211914,230.9028778076172,229.6640014648438,12.73266220092773,41824.03596125,-0.9993743896484375,-0.00970458984375,-0.050567626953125,41824.01204225,-0.06360507756471634,-0.2143567651510239,0.006281864363700151,41823.93557025,-50.86968994140625,-42.89857482910156,-17.98844909667969,41823.99693425,-0.0116722782281099,-1.516356441420777,0.01082245986424969,-0.05305111780762672,-0.2326413542032242,0.0005755997262895107,0.001054048538208008,-0.007564574480056763,0.0004700422286987305,2,-8.389316897161603e-05,-0.6876009634374793,-0.007958154256804378,0.7260452127217727,-0.9984601140022278,-0.01082224864512682,-0.05440981686115265,-25.12829208374023,-21.29930114746094,-22.53734588623047,-1,2,41822.687906125,1,2,1659876532.437023,0,0,0,0,0,0,0,0,0,41820.68783,0,-0.07662964,97.29839,1659876531.993468,3232235861,172480399,0,0,1,1659876531.970341,1,0.11,0
1659876533.731623,18,1659876531.645408,28.61998128265263,77.37100343686852,207.9473,-1,-1,-1,-1,16.86159324645996,35,-9999,1659876533.72695,-24.50547790527344,-19.86627578735352,-21.68203353881836,231.1542816162109,229.9154052734375,12.73268222808838,41824.13542525,-0.99945068359375,-0.0121307373046875,-0.0584869384765625,41824.11150225,-0.08568481355905533,0.05697513371706009,0.008721586316823959,41824.13571125,-49.75021362304688,-41.02561950683594,-17.03421020507812,41824.09765625,-0.01604760313819678,-1.53136812202484,0.01021846950377767,-0.07987081259489059,0.03179824724793434,0.00783862080425024,-0.0006615519523620605,-0.002553314901888371,0.03294628486037254,2,-0.001877448944721971,-0.6930285040281459,-0.009325013569020352,0.7208474938794585,-0.99917072057724,-0.01021829154342413,-0.03941593691706657,-24.75220108032227,-20.41334915161133,-21.9018440246582,-1,2,41822.687906125,1,2,1659876532.437023,0,0,0,0,0,0,0,0,0,41820.68783,0,-0.07662964,97.29839,1659876531.993468,3232235861,172480399,0,0,1,1659876531.970341,1,0.11,0
1659876533.846945,19,1659876531.645408,28.61998128265263,77.37100343686852,207.9473,-1,-1,-1,-1,16.86159324645996,35,-9999,1659876533.827591,-24.14238739013672,-18.6867790222168,-21.7148551940918,231.2891845703125,230.0503082275391,12.7326717376709,41824.23488925,-0.9979248046875,-0.0009613037109375,-0.0543670654296875,41824.21096625,-0.02068237587809563,-0.01486523263156414,0.01202390622347593,41824.23578425001,-49.35931396484375,-39.89239501953125,-16.95651245117188,41824.19837825,-0.02089721844028934,-1.529620684719873,0.009509563067314718,-0.01848157867789268,0.001122609712183475,0.003944839350879192,0.0004805326461791992,0.0009797811508178711,-0.008276283740997314,2,-0.003803965286798883,-0.6923903924864576,-0.01083061147156922,0.7214317825431003,-0.9991072416305542,-0.009509420022368431,-0.0411621481180191,-24.18646621704102,-19.10792922973633,-21.68108749389648,-1,2,41822.687906125,1,2,1659876532.437023,0,0,0,0,0,0,0,0,0,41820.68783,0,-0.07662964,97.29839,1659876531.993468,3232235861,172480399,0,0,1,1659876531.970341,1,0.11,0
1659876533.933561,20,1659876531.645408,28.61998128265263,77.37100343686852,207.9473,-1,-1,-1,-1,16.86159324645996,35,-9999,1659876533.928309,-24.0907096862793,-17.50992584228516,-22.00346755981445,231.3955383300781,230.1566619873047,12.73266410827637,41824.33435325,-1.000869750976562,0.0049896240234375,-0.0431060791015625,41824.31043025,-0.1280562430620193,0.2358942925930023,0.05912537127733231,41824.33585225001,-49.28262329101562,-38.41856384277344,-17.28227233886719,41824.29910025001,-0.02273707142203278,-1.529248359965761,0.007930073688490209,-0.09366131573915482,0.1765897125005722,0.04648170992732048,-0.001840412616729736,0.008982867002487183,0.03996312618255615,2,-0.005008669857638676,-0.6922481906154798,-0.01094845292819441,0.7215591255810897,-0.99910569190979,-0.007929990999400616,-0.04153471067547798,-24.1403923034668,-18.08248901367188,-21.74018478393555,-1,2,41822.687906125,1,2,1659876532.437023,0,0,0,0,0,0,0,0,0,41821.689778,0,-0.08456421,97.29845,1659876531.993468,3232235861,172480399,0,0,1,1659876531.970341,1,0.11,0
1659876534.029307,21,1659876531.645408,28.61998128265263,77.37100343686852,207.9473,-1,-1,-1,-1,16.86159324645996,35,-9999,1659876534.009095,-24.13965606689453,-16.52510452270508,-22.4949836730957,231.2688446044922,230.0299682617188,12.73270320892334,41824.43381325001,-0.99493408203125,0.006195068359375,-0.07080078125,41824.40989425001,-0.009743440896272659,-0.00518810423091054,0.07573603838682175,41824.33585225001,-49.28262329101562,-38.41856384277344,-17.28227233886719,41824.39982225,-0.03173779307068712,-1.511008630210876,-0.001207539251952456,0.0005198586732149124,0.001907243393361568,0.08940304815769196,-0.001726448535919189,0.004819661378860474,-0.02653634175658226,2,-0.01131958757044754,-0.6855624313219715,-0.01113696703661393,0.7278406237987149,-0.9982125163078308,0.001207538996823132,-0.05975203961133957,-24.12416076660156,-16.65606689453125,-22.51199722290039,-1,2,41822.687906125,1,2,1659876532.437023,0,0,0,0,0,0,0,0,0,41821.689778,0,-0.08456421,97.29845,1659876531.993468,3232235861,172480399,0,0,1,1659876531.970341,1,0.11,0
1659876534.129475,22,1659876531.645408,28.61998128265263,77.37100343686852,207.9473,-1,-1,-1,-1,16.86159324645996,35,-9999,1659876534.109921,-24.67739486694336,-15.83860015869141,-22.45064544677734,231.0765228271484,229.837646484375,12.73274421691895,41824.53327725,-0.994964599609375,0.0044097900390625,-0.0662078857421875,41824.50935425,0.02248267270624638,-0.1380801051855087,-0.0100813964381814,41824.43591925001,-49.74002075195312,-37.53033447265625,-17.54563903808594,41824.50054425,-0.03021776316252375,-1.515708490449126,-0.003853654658380177,0.02711283601820469,-0.1275208741426468,-0.0153236435726285,-0.0001205205917358398,-0.004052013158798218,-0.02582716941833496,2,-0.01178421305457583,-0.6872636660839553,-0.009649052387840418,0.726248383218602,-0.9984756708145142,0.003853645175695419,-0.05505957081913948,-24.7103157043457,-15.81093597412109,-22.30550003051758,-1,2,41822.687906125,1,2,1659876532.437023,0,0,0,0,0,0,0,0,0,41821.689778,0,-0.08456421,97.29845,1659876531.993468,3232235861,172480399,0,0,1,1659876531.970341,1,0.11,0
1659876534.230969,23,1659876531.645408,28.61998128265263,77.37100343686852,207.9473,-1,-1,-1,-1,16.86159324645996,35,-9999,1659876534.210521,-25.62351989746094,-15.1490364074707,-22.11986541748047,231.4176483154297,230.1787719726562,12.73273944854736,41824.63274125,-0.99920654296875,-0.0003814697265625,-0.042816162109375,41824.60881825,-0.03616705909371376,-0.1097262278199196,-0.06707144528627396,41824.53599225,-50.51910400390625,-36.50985717773438,-17.44268798828125,41824.60126625,-0.0301287425353697,-1.530031202305075,0.001345020537816846,-0.02593328431248665,-0.1214143186807632,-0.07142087072134018,0.0005111098289489746,0.001146644470281899,-0.002947326749563217,2,-0.009947332985201535,-0.6924768246759755,-0.01133228839691194,0.7212824814392216,-0.9991682767868042,-0.001345020136795938,-0.0407537966966629,-25.4802131652832,-15.28755950927734,-22.16780090332031,-1,2,41822.687906125,1,2,1659876532.437023,0,0,0,0,0,0,0,0,0,41821.689778,0,-0.08456421,97.29845,1659876531.993468,3232235861,172480399,0,0,1,1659876531.970341,1,0.11,0
1659876534.331251,24,1659876531.645408,28.61998128265263,77.37100343686852,207.9473,-1,-1,-1,-1,16.86159324645996,35,-9999,1659876534.31101,-26.09471130371094,-14.78900527954102,-22.61923599243164,232.0232849121094,230.7844085693359,12.73273754119873,41824.73220525,-1.00244140625,-0.0029296875,-0.052734375,41824.70828225,-0.08024450391530991,0.1571805626153946,-0.03848028182983398,41824.63605725001,-51.18907165527344,-36.08743286132812,-17.22312927246094,41824.70198825,-0.03480226891475956,-1.532170440479047,0.007309053038303892,-0.07639115303754807,0.1453331261873245,-0.04342521727085114,-0.001810133457183838,-0.0001067817211151123,0.02212059497833252,2,-0.009430696163198027,-0.6932556778168043,-0.01507243434415614,0.7204724433520893,-0.9992275238037109,-0.007308987900614738,-0.03861525282263756,-26.06600189208984,-15.05662155151367,-22.17903137207031,-1,2,41822.687906125,1,2,1659876532.437023,0,0,0,0,0,0,0,0,0,41821.689778,0,-0.08456421,97.29845,1659876531.993468,3232235861,172480399,0,0,1,1659876531.970341,1,0.11,0
1659876534.427204,25,1659876531.645408,28.61998128265263,77.37100343686852,207.9473,-1,-1,-1,-1,16.86159324645996,35,-9999,1659876534.411886,-26.34593963623047,-14.65740966796875,-22.70556640625,232.0377807617188,230.7989044189453,12.7327356338501,41824.83166575,-0.9979095458984375,0.0009765625,-0.079315185546875,41824.80774675,-0.03198829293251038,0.1143654584884644,0.01157356519252062,41824.73612225,-51.50282287597656,-35.80570983886719,-17.73641967773438,41824.80271025001,-0.03537910374188497,-1.521959414526045,0.008093416818246211,-0.01018485147505999,0.1085867881774902,0.004654244054108858,-0.0009045600891113281,0.01015326380729675,0.00580143928527832,2,-0.009268529904360168,-0.6895695334626496,-0.01559959778128944,0.723992176006393,-0.9987750649452209,-0.008093328215181828,-0.04881590604782104,-26.34686660766602,-14.73274612426758,-22.88000869750977,-1,2,41822.687906125,1,2,1659876532.437023,0,0,0,0,0,0,0,0,0,41821.689778,0,-0.08456421,97.29845,1659876531.993468,3232235861,172480399,0,0,1,1659876531.970341,1,0.11,0
1659876534.527401,26,1659876531.645408,28.61998128265263,77.37100343686852,207.9473,-1,-1,-1,-1,16.86159324645996,35,-9999,1659876534.512344,-26.99331283569336,-14.77351379394531,-22.97196197509766,231.8590240478516,230.6201477050781,12.7327356338501,41824.93112975,-0.998809814453125,-0.010955810546875,-0.04998779296875,41824.90720675,0.02608725987374783,-0.1154128760099411,0.02073963358998299,41824.83618475001,-51.71000671386719,-35.766845703125,-18.22718811035156,41824.90343275,-0.03374775097037326,-1.52409042131051,0.007171554291933863,0.03566285222768784,-0.1192909330129623,0.0165586993098259,-0.00198596715927124,0.0004576151259243488,-0.0184825025498867,2,-0.009055469812089073,-0.6903434916299824,-0.01468160584905043,0.7232760719468276,-0.9988837838172913,-0.007171493023633957,-0.04668772220611572,-26.93298721313477,-14.69647216796875,-22.97153091430664,-1,2,41822.687906125,1,2,1659876532.437023,0,0,0,0,0,0,0,0,0,41821.689778,0,-0.08456421,97.29845,1659876531.993468,3232235861,172480399,0,0,1,1659876531.970341,1,0.11,0
1659876534.628642,27,1659876531.645408,28.61998128265263,77.37100343686852,207.9473,-1,-1,-1,-1,16.86159324645996,35,-9999,1659876534.613578,-27.92076110839844,-14.6010627746582,-22.41945648193359,231.5664978027344,230.3276214599609,12.73273849487305,41825.03059375,-1.000335693359375,-0.0040283203125,-0.0265045166015625,41825.00667075,-5.938849062658846e-05,-0.1255616545677185,0.01900325156748295,41824.93625575,-52.4693603515625,-35.76277160644531,-18.03462219238281,41825.00415475,-0.03030414139271579,-1.539565654929218,0.005072581505065124,0.01570510864257812,-0.1320546418428421,0.0169310811907053,-0.0002105832099914551,-0.001931219827383757,0.01051908917725086,2,-0.008724087794010099,-0.6959247758297473,-0.01264467375098829,0.7179503482609086,-0.999499499797821,-0.00507255969569087,-0.03122519329190254,-27.80709838867188,-14.56180572509766,-22.54878616333008,-1,2,41824.94414675,2,0,1659876534.693264,0,0,0,0,0,0,0,0,0,41821.689778,0,-0.08456421,97.29845,1659876531.993468,3232235861,172480399,0,0,1,1659876531.970341,1,0.11,0
1659876534.72886,28,1659876531.645408,28.61998128265263,77.37100343686852,207.9473,-1,-1,-1,-1,16.86159324645996,35,-9999,1659876534.713951,-28.28398132324219,-14.84170913696289,-22.50600051879883,231.5369415283203,230.2980651855469,12.732741355896,41825.13005775,-1.001480102539062,-0.0063323974609375,-0.0412750244140625,41825.10613475,-0.02819728292524815,0.02051086723804474,0.003895672038197517,41825.03632175001,-53.370849609375,-35.95436096191406,-18.04988098144531,41825.10487675,-0.03022078881146546,-1.544737552123594,0.004229252064670358,-0.01665857248008251,0.01450865715742111,-0.001439586747437716,-0.0001347661018371582,0.006197630893439054,-0.00269186869263649,2,-0.009029670425526659,-0.6977755127447249,-0.01229801777479289,0.7161541479775574,-0.9996517300605774,-0.004229239653795958,-0.0260555986315012,-28.34165191650391,-14.65256118774414,-22.55975341796875,-1,2,41824.94414675,2,0,1659876534.693264,0,0,0,0,0,0,0,0,0,41821.689778,0,-0.08456421,97.29845,1659876531.993468,3232235861,172480399,0,0,1,1659876531.970341,1,0.11,0
1659876534.824928,29,1659876531.645408,28.61998128265263,77.37100343686852,207.9473,-1,-1,-1,-1,16.86159324645996,35,-9999,1659876534.815099,-28.6886100769043,-14.77619934082031,-22.53857040405273,231.4413909912109,230.2025146484375,12.73274612426758,41825.22951775001,-0.996734619140625,0.0019683837890625,-0.0345916748046875,41825.20559875,0.03224688395857811,-0.09362050145864487,0.003820570884272456,41825.13638775,-53.66978454589844,-35.72320556640625,-17.65536499023438,41825.20559875,-0.02961381155651113,-1.547276890784707,0.003606508149647204,0.0435490570962429,-0.09769731014966965,0.0003191360738128424,-0.0009239315986633301,0.0009362103883177042,-0.02685206942260265,2,-0.009055965424188211,-0.698684071912833,-0.01185192926974149,0.7152748197561641,-0.9997169375419617,-0.003606500336900353,-0.02351711504161358,-28.58693695068359,-14.82579803466797,-22.59706878662109,-1,2,41824.94414675,2,0,1659876534.693264,0,0,0,0,0,0,0,0,0,41821.689778,0,-0.08456421,97.29845,1659876531.993468,3232235861,172480399,0,0,1,1659876531.970341,1,0.11,0
1659876534.926387,30,1659876531.645408,28.61998128265263,77.37100343686852,207.9473,-1,-1,-1,-1,16.86159324645996,35,-9999,1659876534.915402,-29.21779632568359,-15.09006881713867,-22.35103988647461,231.4192657470703,230.1803894042969,12.73275279998779,41825.32898175,-0.9997711181640625,-0.00531005859375,-0.005401611328125,41825.30505875,0.01216159109026194,-0.07783674448728561,-0.008169513195753098,41825.23645075,-54.12841796875,-36.1578369140625,-17.7083740234375,41825.30632075,-0.02712559572261903,-1.558643270496084,0.005477688469664918,0.02301973104476929,-0.07968646287918091,-0.01041738782078028,-0.006009221076965332,0.003844976425170898,0.0007390379905700684,2,-0.007583358536067203,-0.7027561487242509,-0.01157278478115015,0.7112963337872216,-0.9999112486839294,-0.005477661266922951,-0.01215257588773966,-29.09609985351562,-14.96994781494141,-22.37585067749023,-1,2,41824.94414675,2,0,1659876534.693264,0,0,0,0,0,0,0,0,0,41822.692407,0,-0.08718872,97.2985,1659876531.993468,3232235861,172480399,0,0,1,1659876531.970341,1,0.11,0
1659876535.026402,31,1659876531.645408,28.61998128265263,77.37100343686852,207.9473,-1,-1,-1,-1,16.86159324645996,35,-9999,1659876535.016872,-29.26002883911133,-15.27463150024414,-22.53170776367188,231.4445190429688,230.2056427001953,12.73276042938232,41825.42844475,-0.9998016357421875,0.001556396484375,-0.0401611328125,41825.40452275,-0.03779851272702217,0.1143393591046333,0.007041397970169783,41825.33652375,-54.66806030273438,-36.25782775878906,-17.59803771972656,41825.40704275,-0.02720702088012497,-1.555419540640434,0.005601055022426151,-0.02191014587879181,0.1079391613602638,0.0004371488466858864,-0.001568198204040527,0.01292526721954346,-0.001103520393371582,2,-0.007549311542215248,-0.701608892371601,-0.01165727216242274,0.7124269427192125,-0.9998661875724792,-0.005601025652140379,-0.01537594012916088,-29.25802993774414,-15.22195816040039,-22.55550003051758,-1,2,41824.94414675,2,0,1659876534.693264,0,0,0,0,0,0,0,0,0,41822.692407,0,-0.08718872,97.2985,1659876531.993468,3232235861,172480399,0,0,1,1659876531.970341,1,0.11,0
1659876535.126819,32,1659876531.645408,28.61998128265263,77.37100343686852,207.9473,-1,-1,-1,-1,16.86159324645996,35,-9999,1659876535.11683,-29.33782577514648,-15.38367080688477,-22.29857635498047,231.2713928222656,230.0325164794922,12.73276996612549,41825.52790875,-0.9998626708984375,-0.005584716796875,-0.0400848388671875,41825.50398675,-0.002923085587099195,-0.05131245404481888,0.00663579860702157,41825.43659175,-54.51957702636719,-36.37886047363281,-17.80778503417969,41825.50776475,-0.02516791871157836,-1.554976714297601,0.004958176719993276,0.01036223489791155,-0.05917753651738167,0.006600434426218271,-0.0008545517921447754,0.008391380310058594,-0.01749110035598278,2,-0.007060632814997581,-0.7014561769800529,-0.01070696297119947,0.7125971909486306,-0.9998626112937927,-0.004958156496286392,-0.01581875793635845,-29.29303359985352,-15.19241714477539,-22.40342712402344,-1,2,41824.94414675,2,0,1659876534.693264,0,0,0,0,0,0,0,0,0,41822.692407,0,-0.08718872,97.2985,1659876531.993468,3232235861,172480399,0,0,1,1659876531.970341,1,0.11,0
1659876535.222885,33,1659876531.645408,28.61998128265263,77.37100343686852,207.9473,-1,-1,-1,-1,16.86159324645996,35,-9999,1659876535.217955,-29.66604232788086,-15.86020660400391,-21.82216644287109,230.9647827148438,229.7259063720703,12.7327823638916,41825.62736875,-1.000640869140625,-0.009307861328125,-0.005035400390625,41825.60345075,0.05806117132306099,-0.2507789731025696,0.004143346101045609,41825.53665575,-54.75390625,-36.68254089355469,-17.31758117675781,41825.60848675,-0.02074325554297858,-1.571207433471681,0.004366127451692448,0.07003362476825714,-0.2545671164989471,0.001388962846249342,0.0002803206443786621,-0.007871419191360474,-0.02528285980224609,2,-0.005791949418566034,-0.7072283964081452,-0.008876083985246142,0.7069056646583889,-0.9999903440475464,-0.004366113804280758,0.000411102722864598,-29.67740249633789,-15.70136642456055,-22.04571914672852,-1,2,41825.58890575,1,2,1659876535.338022,0,0,0,0,0,0,0,0,0,41822.692407,0,-0.08718872,97.2985,1659876531.993468,3232235861,172480399,0,0,1,1659876531.970341,1,0.11,0
1659876535.325759,34,1659876531.645408,28.61998128265263,77.37100343686852,207.9473,-1,-1,-1,-1,16.86159324645996,35,-9999,1659876535.318107,-30.34110260009766,-16.11914443969727,-21.03226852416992,230.4868469238281,229.2479705810547,12.73279762268066,41825.72683275001,-0.9996795654296875,-0.01092529296875,0.0273590087890625,41825.70291075001,0.09125588089227676,-0.2386671751737595,0.003827228676527739,41825.63672975,-55.17669677734375,-36.76663208007812,-17.0050048828125,41825.70920875001,-0.01315041384186958,-1.59571980442629,0.004097767669568347,0.112676315009594,-0.2416574060916901,0.002599011640995741,-0.001692235469818115,0.002510846126824617,-0.007983328774571419,2,-0.003276324929122693,-0.7158558583474586,-0.006057720157305685,0.6982141306420204,-0.9996810555458069,-0.004097755998373032,0.02492068894207478,-30.26294326782227,-16.04387664794922,-21.16601181030273,-1,2,41825.58890575,1,2,1659876535.338022,0,0,0,0,0,0,0,0,0,41822.692407,0,-0.08718872,97.2985,1659876531.993468,3232235861,172480399,0,0,1,1659876531.970341,1,0.11,0
1659876535.424402,35,1659876531.645408,28.61998128265263,77.37100343686852,207.9473,-1,-1,-1,-1,16.86159324645996,35,-9999,1659876535.419266,-30.72374725341797,-16.43394088745117,-20.27311706542969,229.6561889648438,228.4173126220703,12.73281860351562,41825.82629729167,-1.00238037109375,0.00408935546875,0.0746612548828125,41825.80237375,0.1878695040941238,-0.1321564316749573,0.001186970854178071,41825.73680275001,-55.73109436035156,-37.55262756347656,-16.24693298339844,41825.80993129167,0.0002219882832565116,-1.611530738293685,0.003685280822045747,0.1976867169141769,-0.1083498150110245,0.001967261778190732,-0.0002869367599487305,8.419156074523926e-05,-0.001507759094238281,2,0.001356203773420966,-0.7213595486903802,-0.00125233797522481,0.6925583764845361,-0.999163806438446,-0.003685272531583905,0.04072287678718567,-30.69180297851562,-16.57017517089844,-20.40744400024414,-1,2,41825.58890575,1,2,1659876535.338022,0,0,0,0,0,0,0,0,0,41822.692407,0,-0.08718872,97.2985,1659876531.993468,3232235861,172480399,0,0,1,1659876531.970341,1,0.11,0
1659876535.526876,36,1659876531.645408,28.61998128265263,77.37100343686852,207.9473,-1,-1,-1,-1,16.86159324645996,35,-9999,1659876535.519822,-30.30698776245117,-17.0189208984375,-20.59433746337891,229.115966796875,227.8770904541016,12.73285293579102,41825.92576129167,-1.000213623046875,0.0126953125,0.046722412109375,41825.90183829167,0.08264774084091187,0.1983357220888138,0.004420048557221889,41825.83686829167,-55.90968322753906,-37.83285522460938,-15.68800354003906,41825.91065329167,0.01027142898184703,-1.599791894219802,0.003115866106688189,0.07248878479003906,0.2293996959924698,0.002915916498750448,-0.001371204853057861,0.01253053545951843,0.01384007558226585,2,0.004769267020562157,-0.7172676878396147,0.002460985365293433,0.6967770520904258,-0.9995747804641724,-0.003115860978141427,0.02899136394262314,-30.41899490356445,-16.923583984375,-20.46956825256348,-1,2,41825.91108829167,2,0,1659876535.660205,0,0,0,0,0,0,0,0,0,41822.692407,0,-0.08718872,97.2985,1659876531.993468,3232235861,172480399,0,0,1,1659876531.970341,1,0.11,0
1659876535.620538,37,1659876531.645408,28.61998128265263,77.37100343686852,207.9473,-1,-1,-1,-1,16.86159324645996,35,-9999,1659876535.60034,-29.88003540039062,-17.31697463989258,-21.48297882080078,228.8157501220703,227.5768737792969,12.73290538787842,41826.02522129167,-1.000656127929688,0.00262451171875,0.012969970703125,41826.00130229167,0.05145386978983879,0.2991118729114532,0.006495183333754539,41825.93693229167,-55.51718139648438,-38.6099853515625,-16.12666320800781,41826.01137429167,0.0160376893731054,-1.571796393752686,0.002421000487745242,0.03302652761340141,0.3367252051830292,0.006632286123931408,-0.001514017581939697,0.006846040952950716,0.019889235496521,2,0.006528446660046122,-0.7074301458600928,0.004810925418030659,0.706736682066074,-0.9999964833259583,-0.002420998178422451,0.001000063726678491,-29.88705062866211,-17.39311981201172,-21.52157974243164,-1,2,41825.91108829167,2,0,1659876535.660205,0,0,0,0,0,0,0,0,0,41822.692407,0,-0.08718872,97.2985,1659876531.993468,3232235861,172480399,0,0,1,1659876531.970341,1,0.11,0
1659876535.725563,38,1659876531.645408,28.61998128265263,77.37100343686852,207.9473,-1,-1,-1,-1,16.86159324645996,35,-9999,1659876535.721045,-29.06247329711914,-17.68525314331055,-22.42763519287109,228.6299743652344,227.3910980224609,12.73305797576904,41826.12468429167,-1.00067138671875,-0.0076904296875,-0.0404815673828125,41826.10076229167,-0.007594536524266005,0.2514708340167999,0.01390143483877182,41826.03699929167,-54.81427001953125,-38.75830078125,-16.94387817382812,41826.11209629167,0.01779106997162849,-1.54204422271628,0.001542626832641777,-0.006139940582215786,0.24010369181633,0.0101971821859479,-0.0002161264419555664,-0.002104222541674972,-0.005935069173574448,2,0.006752099232534503,-0.6968359601251432,0.005842297844478178,0.7171749364799853,-0.9995854496955872,-0.001542626181617379,-0.02874810807406902,-29.08417510986328,-17.48603820800781,-22.47465133666992,-1,2,41825.91108829167,2,0,1659876535.660205,0,0,0,0,0,0,0,0,0,41822.692407,0,-0.08718872,97.2985,1659876531.993468,3232235861,172480399,0,0,1,1659876531.970341,1,0.11,0
1659876535.822375,39,1659876531.645408,28.61998128265263,77.37100343686852,207.9473,-1,-1,-1,-1,16.86159324645996,35,-9999,1659876535.801549,-28.57600402832031,-17.88346862792969,-22.67731094360352,228.6019897460938,227.3631134033203,12.73312568664551,41826.22414829167,-0.9990386962890625,0.0014801025390625,-0.06768798828125,41826.20022629167,-0.03585626929998398,0.05294550582766533,0.0107107013463974,41826.13706729167,-53.97750854492188,-38.84428405761719,-17.698974609375,41826.21281829167,0.01703979412154358,-1.530969809330198,0.0005013267748155553,-0.03211629390716553,0.01946423947811127,0.008546130731701851,0.0007632970809936523,-0.002504646778106689,-0.008920490741729736,2,0.006083984913561602,-0.6928600085816335,0.005969492062684878,0.7210217909826822,-0.9992069602012634,-0.0005013267509639263,-0.0398159883916378,-28.70071411132812,-17.56501388549805,-22.5992317199707,-1,2,41825.91108829167,2,0,1659876535.660205,0,0,0,0,0,0,0,0,0,41822.692407,0,-0.08718872,97.2985,1659876531.993468,3232235861,172480399,0,0,1,1659876531.970341,1,0.11,0
1659876535.923231,40,1659876531.645408,28.61998128265263,77.37100343686852,207.9473,-1,-1,-1,-1,16.86159324645996,35,-9999,1659876535.922357,-28.64288711547852,-17.77931976318359,-22.72805404663086,228.6108245849609,227.3719482421875,12.73314476013184,41826.32361229167,-1.00018310546875,-0.0059356689453125,-0.0407562255859375,41826.29968929167,-0.02774348109960556,0.006846454460173845,0.01101856306195259,41826.23714129167,-54.02249145507812,-38.78082275390625,-17.92372131347656,41826.31354029167,0.01621394168374868,-1.533069550415342,-0.0004339735352214548,-0.01276378147304058,0.008775057271122932,0.009628541767597198,-0.001199901103973389,-0.008902609348297119,-0.0004443489015102386,2,0.005466990238431529,-0.6936217991875328,0.005990044426448959,0.7202937008749397,-0.9992883205413818,0.0004339735314715654,-0.03771782293915749,-28.66945266723633,-17.65627288818359,-22.91917419433594,-1,2,41826.24052229167,1,2,1659876535.989639,0,0,0,0,0,0,0,0,0,41823.694558,0,-0.116272,97.29882,1659876531.993468,3232235861,172480399,0,0,1,1659876531.970341,1,0.11,0
1659876536.01836,41,1659876531.645408,28.61998128265263,77.37100343686852,207.9473,-1,-1,-1,-1,16.86159324645996,35,-9999,1659876536.003255,-28.69668960571289,-17.89433670043945,-22.92396926879883,228.35693359375,227.1180572509766,12.73315811157227,41826.42307229167,-0.9998626708984375,0.003814697265625,-0.042205810546875,41826.39915329167,0.04829083383083344,-0.07467956095933914,0.01040337234735489,41826.33721829167,-53.91981506347656,-38.93609619140625,-17.7847900390625,41826.41426229167,0.02063134137465157,-1.537248908301138,-0.001008422458998729,0.04612225294113159,-0.0882185772061348,0.008053739555180073,-0.0006241798400878906,0.01095446944236755,-0.008359428495168686,2,0.006808338782872875,-0.6951137266787061,0.007765950838731273,0.7188255521277668,-0.9994367361068726,0.001008422230370343,-0.03354110568761826,-28.69343948364258,-18.11668014526367,-22.74980926513672,-1,2,41826.24052229167,1,2,1659876535.989639,0,0,0,0,0,0,0,0,0,41823.694558,0,-0.116272,97.29882,1659876531.993468,3232235861,172480399,0,0,1,1659876531.970341,1,0.11,0
1659876536.123027,42,1659876531.645408,28.61998128265263,77.37100343686852,207.9473,-1,-1,-1,-1,16.86159324645996,35,-9999,1659876536.105758,-28.76822662353516,-18.43968963623047,-22.46573257446289,228.3436126708984,227.104736328125,12.73317718505859,41826.52253529167,-1.000076293945312,0.0076904296875,-0.043182373046875,41826.49861329167,-0.03903581574559212,-0.05812055990099907,0.003945206757634878,41826.43728629167,-54.05168151855469,-39.34623718261719,-17.7374267578125,41826.51498329167,0.02001142385527196,-1.542778939985838,-0.00123183420009142,-0.0003232015296816826,-0.09143233299255371,0.001672889571636915,-0.0001642704010009766,0.00954088568687439,-0.02545303106307983,2,0.006533629408663005,-0.6971014707941159,0.007602755259054517,0.7169024497602171,-0.9996068477630615,0.001231833943165839,-0.02801370248198509,-28.77286529541016,-18.58185195922852,-22.35123062133789,-1,2,41826.24052229167,1,2,1659876535.989639,0,0,0,0,0,0,0,0,0,41823.694558,0,-0.116272,97.29882,1659876531.993468,3232235861,172480399,0,0,1,1659876531.970341,1,0.11,0
1659876536.220048,43,1659876531.645408,28.61998128265263,77.37100343686852,207.9473,-1,-1,-1,-1,16.86159324645996,35,-9999,1659876536.204526,-28.94594573974609,-18.4321403503418,-22.05688095092773,228.3357086181641,227.0968322753906,12.73319625854492,41826.62199929167,-1.000457763671875,-0.0020294189453125,0.0105743408203125,41826.59807729167,0.02894696220755577,-0.1548444330692291,0.007839813828468323,41826.53735529167,-54.17044067382812,-39.48707580566406,-17.59286499023438,41826.61570529167,0.02039764727691856,-1.554738820905418,-0.001343232242832582,0.01932872273027897,-0.08681485056877136,-0.0003352253697812557,-0.001320004463195801,-0.002441883087158203,0.01279145479202271,2,0.006674722282566797,-0.7013751116900984,0.007740248871705602,0.7127190909310885,-0.9998701810836792,0.001343231881037354,-0.01605680212378502,-28.89682388305664,-18.49666595458984,-22.10795593261719,-1,2,41826.24052229167,1,2,1659876535.989639,0,0,0,0,0,0,0,0,0,41823.694558,0,-0.116272,97.29882,1659876531.993468,3232235861,172480399,0,0,1,1659876531.970341,1,0.11,0
1659876536.325473,44,1659876531.645408,28.61998128265263,77.37100343686852,207.9473,-1,-1,-1,-1,16.86159324645996,35,-9999,1659876536.305748,-28.85535049438477,-18.82909774780273,-22.03940582275391,228.2318115234375,226.9929351806641,12.7332181930542,41826.72146329167,-1.000625610351562,0.0183868408203125,-0.0283050537109375,41826.69754029167,-0.0007443535141646862,0.002447711303830147,0.002384594408795238,41826.63742329167,-54.18461608886719,-39.77903747558594,-17.34928894042969,41826.71642729167,0.02200673150104841,-1.557898377120608,-0.001298349993426497,0.0104909110814333,-0.01289648935198784,0.0009612166322767735,0.00125885009765625,0.01512008905410767,-0.004100680351257324,2,0.007268098972898568,-0.7024944008511521,0.008286447827309668,0.711604011804125,-0.999916136264801,0.001298349583521485,-0.01289758272469044,-28.8101921081543,-18.92284393310547,-22.03173446655273,-1,2,41826.24052229167,1,2,1659876535.989639,0,0,0,0,0,0,0,0,0,41823.694558,0,-0.116272,97.29882,1659876531.993468,3232235861,172480399,0,0,1,1659876531.970341,1,0.11,0
1659876536.416418,45,1659876531.645408,28.61998128265263,77.37100343686852,207.9473,-1,-1,-1,-1,16.86159324645996,35,-9999,1659876536.405881,-28.73065948486328,-19.10717010498047,-21.88886260986328,227.8142700195312,226.5753936767578,12.73324108123779,41826.820922,-1.002273559570312,0.0057830810546875,-0.0089111328125,41826.79700429167,0.04209632053971291,0.06994206458330154,0.0002298307954333723,41826.73750329167,-54.09872436523438,-39.9434814453125,-17.01699829101562,41826.71642729167,0.02200673150104841,-1.557898377120608,-0.001298349993426497,0.0104909110814333,-0.01289648935198784,0.0009612166322767735,0.00125885009765625,0.01512008905410767,-0.004100680351257324,2,0.007268098972898568,-0.7024944008511521,0.008286447827309668,0.711604011804125,-0.999916136264801,0.001298349583521485,-0.01289758272469044,-28.8101921081543,-18.92284393310547,-22.03173446655273,-1,2,41826.24052229167,1,2,1659876535.989639,0,0,0,0,0,0,0,0,0,41823.694558,0,-0.116272,97.29882,1659876531.993468,3232235861,172480399,0,0,1,1659876531.970341,1,0.11,0
1659876536.516918,46,1659876531.645408,28.61998128265263,77.37100343686852,207.9473,-1,-1,-1,-1,16.86159324645996,35,-9999,1659876536.506861,-28.27880477905273,-19.43955230712891,-22.19675445556641,227.6107025146484,226.371826171875,12.7332649230957,41826.92038600001,-0.9996185302734375,0.0052490234375,-0.029083251953125,41826.896464,0.00156513974070549,0.1350651383399963,0.002590190386399627,41826.837565,-53.94157409667969,-40.52998352050781,-17.07525634765625,41826.817148,0.0298368926493702,-1.560206532623909,-0.001275821435670536,0.06199247390031815,0.09852693974971771,0.0006075056735426188,-0.0002399682998657227,0.005743235349655151,0.009490967728197575,2,0.01003913759973513,-0.7032811826987022,0.01105287278673237,0.7107549657533456,-0.9999431371688843,0.001275821123272181,-0.01058958750218153,-28.5850944519043,-19.24222564697266,-21.87457656860352,-1,2,41826.24052229167,1,2,1659876535.989639,0,0,0,0,0,0,0,0,0,41823.694558,0,-0.116272,97.29882,1659876531.993468,3232235861,172480399,0,0,1,1659876531.970341,1,0.11,0
1659876536.61774,47,1659876531.645408,28.61998128265263,77.37100343686852,207.9473,-1,-1,-1,-1,16.86159324645996,35,-9999,1659876536.607373,-27.94960784912109,-19.74126815795898,-22.48659515380859,227.5408935546875,226.3020172119141,12.73329067230225,41827.01985,-1.000213623046875,0.01202392578125,-0.0656890869140625,41826.995927,-0.002411492401733994,-0.02406592108309269,0.006998254451900721,41826.937631,-53.44667053222656,-40.7705078125,-17.66725158691406,41826.91787,0.03296149740289858,-1.546641732132893,-0.001437938687604378,0.02118560671806335,0.1106136217713356,0.004554292187094688,-0.0004147887229919434,-0.002750188112258911,-0.01637506112456322,2,0.01099711386451596,-0.6984289182178509,0.01229514652348257,0.7154892535101488,-0.9997072219848633,0.001437938190065324,-0.02415221929550171,-28.34706878662109,-19.46538162231445,-22.21115493774414,-1,2,41826.24052229167,1,2,1659876535.989639,0,0,0,0,0,0,0,0,0,41823.694558,0,-0.116272,97.29882,1659876531.993468,3232235861,172480399,0,0,1,1659876531.970341,1,0.11,0
1659876536.723447,48,1659876531.645408,28.61998128265263,77.37100343686852,207.9473,-1,-1,-1,-1,16.86159324645996,35,-9999,1659876536.708302,-28.63356018066406,-20.35652160644531,-21.55973434448242,226.8292388916016,225.5903625488281,12.73334121704102,41827.119314,-1.001602172851562,-0.000762939453125,0.065338134765625,41827.095391,0.165961280465126,-0.3612782955169678,0.01082068961113691,41827.037699,-53.532958984375,-41.03500366210938,-17.56675720214844,41827.018592,0.03381060880673874,-1.543265288064895,-0.001594044409944116,0.005413594655692577,-0.126492828130722,0.001465353183448315,-1.40070915222168e-05,0.008400440216064453,-0.0330955944955349,2,0.01121640988718001,-0.697216200163824,0.01267237690775458,0.7166610963834206,-0.999619722366333,0.001594043686054647,-0.02752752415835857,-27.85241317749023,-19.91792297363281,-22.47643280029297,-1,2,41826.24052229167,1,2,1659876535.989639,0,0,0,0,0,0,0,0,0,41823.694558,0,-0.116272,97.29882,1659876531.993468,3232235861,172480399,0,0,1,1659876531.970341,1,0.11,0
1659876536.813967,49,1659876531.645408,28.61998128265263,77.37100343686852,207.9473,-1,-1,-1,-1,16.86159324645996,35,-9999,1659876536.808755,-28.18506622314453,-20.59610748291016,-21.77883911132812,226.859130859375,225.6202545166016,12.73348999023438,41827.218773,-0.9988250732421875,0.00732421875,-0.005767822265625,41827.194855,-0.03265168517827988,0.1882173120975494,-0.0008130630594678223,41827.13776000001,-53.90287780761719,-41.70315551757812,-16.70077514648438,41827.119314,0.04642173151171568,-1.575756016782717,-0.002238134075304265,0.06208252906799316,-0.1264411360025406,0.0004003299400210381,-0.001403331756591797,-0.00474056601524353,0.0558772087097168,2,0.01566260041672446,-0.7086850581219111,0.01716337520258229,0.7051422596368295,-0.9999852180480957,0.002238132292404771,0.004959657322615385,-28.57085418701172,-20.38564300537109,-21.41828536987305,-1,2,41826.24052229167,1,2,1659876535.989639,0,0,0,0,0,0,0,0,0,41823.694558,0,-0.116272,97.29882,1659876531.993468,3232235861,172480399,0,0,1,1659876531.970341,1,0.11,0
1659876536.917319,50,1659876531.645408,28.61998128265263,77.37100343686852,207.9473,-1,-1,-1,-1,16.86159324645996,35,-9999,1659876536.909791,-27.61273193359375,-20.87410736083984,-22.33856201171875,226.9447479248047,225.7058715820312,12.73357677459717,41827.318237,-0.99920654296875,0.0125732421875,-0.0494232177734375,41827.29431400001,-0.006764695513993502,0.1886460781097412,-0.003795270808041096,41827.23781000001,-53.42900085449219,-41.95347595214844,-17.31832885742188,41827.22003500001,0.04474537514336052,-1.564972418155933,-0.00206822705516559,-0.03381101414561272,0.2043656259775162,0.001092830207198858,0.001201629638671875,0.003089248901233077,0.007838129997253418,2,0.01503924973329662,-0.7048843091775849,0.01659346038745907,0.708968682668933,-0.9999809265136719,0.002068225527182221,-0.005823863204568624,-28.16100692749023,-20.78573226928711,-21.84252166748047,-1,2,41826.24052229167,1,2,1659876535.989639,0,0,0,0,0,0,0,0,0,41824.696658,0,-0.116272,97.29884,1659876531.993468,3232235861,172480399,0,0,1,1659876531.970341,1,0.11,0
1659876537.015224,51,1659876531.645408,28.61998128265263,77.37100343686852,207.9473,-1,-1,-1,-1,16.86159324645996,35,-9999,1659876537.010342,-27.45130157470703,-21.23205184936523,-22.2590446472168,226.691650390625,225.4527740478516,12.73360633850098,41827.41770000001,-1.001266479492188,0.0123291015625,-0.03436279296875,41827.39377800001,0.07786630094051361,-0.06752444803714752,0.001856755930930376,41827.33785700001,-52.82106018066406,-42.14955139160156,-17.79219055175781,41827.320757,0.04397566549754033,-1.546734050223394,-0.001740586758646268,0.006514858454465866,0.1187169998884201,-0.006831176578998566,0.000914454460144043,0.01171767711639404,-0.02135014347732067,2,0.01473572519916674,-0.6983930834690785,0.01634019435418288,0.7153761105847012,-0.9997090101242065,0.001740585896186531,-0.02405991964042187,-27.61624145507812,-20.87089920043945,-22.31216430664062,-1,2,41826.24052229167,1,2,1659876535.989639,0,0,0,0,0,0,0,0,0,41824.696658,0,-0.116272,97.29884,1659876531.993468,3232235861,172480399,0,0,1,1659876531.970341,1,0.11,0
1659876537.117369,52,1659876531.645408,28.61998128265263,77.37100343686852,207.9473,-1,-1,-1,-1,16.86159324645996,35,-9999,1659876537.111119,-27.41808700561523,-21.55668258666992,-22.01475143432617,226.3422546386719,225.1033782958984,12.73363494873047,41827.517164,-0.999481201171875,0.0068817138671875,-0.03009033203125,41827.493241,0.004494616761803627,0.02832884341478348,0.0055228634737432,41827.4379,-52.90081787109375,-42.66007995605469,-17.12004089355469,41827.421478,0.04962574762083211,-1.548311601400906,-0.001481568711172397,0.09779343008995056,-0.1031263768672943,0.0008874090854078531,-0.001093089580535889,0.0117630660533905,-0.01249026879668236,2,0.01681570627316245,-0.6989104592186878,0.01825739664960221,0.7147782672154042,-0.9997460246086121,0.001481568207964301,-0.02248280495405197,-27.42656707763672,-21.33075332641602,-22.07895278930664,-1,2,41826.24052229167,1,2,1659876535.989639,0,0,0,0,0,0,0,0,0,41824.696658,0,-0.116272,97.29884,1659876531.993468,3232235861,172480399,0,0,1,1659876531.970341,1,0.11,0
1659876537.211569,53,1659876531.645408,28.61998128265263,77.37100343686852,207.9473,-1,-1,-1,-1,16.86159324645996,35,-9999,1659876537.191469,-27.35308456420898,-21.91350173950195,-21.72402954101562,225.9261932373047,224.6873168945312,12.73365783691406,41827.616623,-1.000595092773438,0.0153350830078125,-0.0028076171875,41827.592705,0.1276266723871231,0.05507763475179672,0.002974750939756632,41827.537955,-52.71910095214844,-42.87376403808594,-16.86805725097656,41827.5222,0.0550886148043853,-1.550879132171148,-0.001463890693755665,0.03770547732710838,0.01481039263308048,-0.001610711100511253,0.000319361686706543,0.005417823791503906,-0.01017445139586926,2,0.01875690651477507,-0.6997787154361754,0.02017945580919747,0.7138281874124658,-0.9998005628585815,0.001463890192098916,-0.0199158564209938,-27.41909790039062,-21.71832656860352,-21.74014663696289,-1,2,41826.24052229167,1,2,1659876535.989639,0,0,0,0,0,0,0,0,0,41824.696658,0,-0.116272,97.29884,1659876531.993468,3232235861,172480399,0,0,1,1659876531.970341,1,0.11,0
1659876537.313953,54,1659876537.250253,28.61993554012991,77.37098542236861,207.4462,-1,-1,-1,-1,19.36637687683105,62.66666666666666,-9999,1659876537.312503,-26.95663833618164,-22.58368301391602,-21.92459106445312,225.0788879394531,223.8400115966797,12.7336950302124,41827.716087,-0.9999542236328125,0.024169921875,-0.031219482421875,41827.692165,0.126835972070694,0.1115989685058594,0.007636880502104759,41827.638,-52.49935913085938,-43.425537109375,-16.87661743164062,41827.622922,0.06603407398718371,-1.547424170968988,-0.001282265246570301,0.1139634624123573,0.141736164689064,-0.001187704270705581,-0.0007927417755126953,0.01472419500350952,0.02024197578430176,2,0.02260959002692561,-0.6984295252946801,0.02406128086769149,0.7149168342973559,-0.9997260570526123,0.001282264944165945,-0.02337000891566277,-27.40298461914062,-22.07941055297852,-21.62117385864258,-1,2,41826.24052229167,1,2,1659876535.989639,0,0,0,0,0,0,0,0,0,41824.696658,0,-0.116272,97.29884,1659876531.993468,3232235861,172480399,0,0,1,1659876531.970341,1,0.11,0
1659876537.412906,55,1659876537.250253,28.61993554012991,77.37098542236861,207.4462,-1,-1,-1,-1,19.36637687683105,62.66666666666666,-9999,1659876537.393121,-26.71341705322266,-22.7002067565918,-21.78627395629883,224.717529296875,223.4786529541016,12.73372554779053,41827.81555075001,-0.998016357421875,0.0050048828125,-0.0635833740234375,41827.791628,0.04120922088623047,0.03761155903339386,0.004437625408172607,41827.73804500001,-52.36550903320312,-43.82791137695312,-16.80343627929688,41827.723643,0.07799469783632887,-1.535171080518637,-0.001086267602976154,0.06954576820135117,0.1343476325273514,-0.002522781025618315,2.104043960571289e-05,0.02427384257316589,0.001850072294473648,2,0.02668234802224345,-0.6938870270160595,0.02843182642427949,0.7190274933642444,-0.999364972114563,0.001086267409846187,-0.03561769053339958,-27.02801132202148,-22.52580261230469,-21.79037475585938,-1,2,41826.24052229167,1,2,1659876535.989639,0,0,0,0,0,0,0,0,0,41824.696658,0,-0.116272,97.29884,1659876531.993468,3232235861,172480399,0,0,1,1659876531.970341,1,0.11,0
